{
	"type": "FeatureCollection",
	"features": [
   {
	 "type": "Feature",
	 "geometry": {
		"type": "Point",
		"coordinates":  [ 121.545224,25.037512 ]
	 },
	 "properties": {
	 "醫院名稱":"臺北市立聯合醫院仁愛院區",
	 "醫院電話":"02-27093600/02-25523234",
	 "地址":"臺北市大安區仁愛路四段10號"
	 }
   },
   {
	 "type": "Feature",
	 "geometry": {
		"type": "Point",
		"coordinates":  [ 121.5191987,25.0409785 ]
	 },
	 "properties": {
	 "醫院名稱":"國立台灣大學醫學院附設醫院",
	 "醫院電話":"02-23123456",
	 "地址":"臺北市中正區中山南路7、8號；常德街1號"
	 }
   },
   {
	 "type": "Feature",
	 "geometry": {
		"type": "Point",
		"coordinates":  [ 121.5576271,25.0543001 ]
	 },
	 "properties": {
	 "醫院名稱":"三軍總醫院松山分院附設民眾診療服務處",
	 "醫院電話":"02-27462151",
	 "地址":"臺北市松山區健康路131號"
	 }
   },
   {
	 "type": "Feature",
	 "geometry": {
		"type": "Point",
		"coordinates":  [ 121.5295147,25.0161331 ]
	 },
	 "properties": {
	 "醫院名稱":"三軍總醫院附設民眾診療服務處及其汀州院區",
	 "醫院電話":"02-87923311/02-23659055",
	 "地址":"臺北市內湖區成功路二段325號、臺北市中正區汀州路3段40號"
	 }
   },
   {
	 "type": "Feature",
	 "geometry": {
		"type": "Point",
		"coordinates":  [ 121.5222656,25.1222532 ]
	 },
	 "properties": {
	 "醫院名稱":"臺北榮民總醫院",
	 "醫院電話":"02-28712121",
	 "地址":"臺北市北投區石牌路二段201號"
	 }
   },
   {
	 "type": "Feature",
	 "geometry": {
		"type": "Point",
		"coordinates":  [ 121.4661369,25.1203578 ]
	 },
	 "properties": {
	 "醫院名稱":"臺北市立關渡醫院─委託臺北榮民總醫院經營",
	 "醫院電話":"02-28587000",
	 "地址":"臺北市北投區知行路225巷12號"
	 }
   },
   {
	 "type": "Feature",
	 "geometry": {
		"type": "Point",
		"coordinates":  [ 121.5499289,25.036515 ]
	 },
	 "properties": {
	 "醫院名稱":"中山醫療社團法人中山醫院",
	 "醫院電話":"02-27081166",
	 "地址":"臺北市大安區仁愛路四段112巷11號"
	 }
   },
   {
	 "type": "Feature",
	 "geometry": {
		"type": "Point",
		"coordinates":  [ 121.5496349,25.0556264 ]
	 },
	 "properties": {
	 "醫院名稱":"長庚醫療財團法人台北長庚紀念醫院",
	 "醫院電話":"02-27135211",
	 "地址":"臺北市松山區敦化北路199號"
	 }
   },
   {
	 "type": "Feature",
	 "geometry": {
		"type": "Point",
		"coordinates":  [ 121.5474831,25.0476829 ]
	 },
	 "properties": {
	 "醫院名稱":"基督復臨安息日會醫療財團法人臺安醫院",
	 "醫院電話":"02-27718151",
	 "地址":"臺北市松山區八德路二段424、426號"
	 }
   },
   {
	 "type": "Feature",
	 "geometry": {
		"type": "Point",
		"coordinates":  [ 121.5527439,25.0371818 ]
	 },
	 "properties": {
	 "醫院名稱":"國泰醫療財團法人國泰綜合醫院",
	 "醫院電話":"02-27082121",
	 "地址":"臺北市大安區仁愛路四段266巷6號、280號"
	 }
   },
   {
	 "type": "Feature",
	 "geometry": {
		"type": "Point",
		"coordinates":  [ 121.5223977,25.0588457 ]
	 },
	 "properties": {
	 "醫院名稱":"財團法人臺灣基督長老教會馬偕紀念社會事業基金會馬偕紀念醫院",
	 "醫院電話":"02-25433535",
	 "地址":"臺北市中山區中山北路二段92號"
	 }
   },
   {
	 "type": "Feature",
	 "geometry": {
		"type": "Point",
		"coordinates":  [ 121.6089476,25.0758907 ]
	 },
	 "properties": {
	 "醫院名稱":"康寧醫療財團法人康寧醫院",
	 "醫院電話":"02-26345500",
	 "地址":"臺北市內湖區成功路五段420巷26號"
	 }
   },
   {
	 "type": "Feature",
	 "geometry": {
		"type": "Point",
		"coordinates":  [ 121.5209269,25.0964181 ]
	 },
	 "properties": {
	 "醫院名稱":"新光醫療財團法人新光吳火獅紀念醫院",
	 "醫院電話":"02-28332211",
	 "地址":"臺北市士林區文昌路95號及士商路51號、51號2樓、51號3樓、51號4樓、51號5樓、51號6樓、51號7樓、53號、55號、57號"
	 }
   },
   {
	 "type": "Feature",
	 "geometry": {
		"type": "Point",
		"coordinates":  [ 121.5225928,25.1173845 ]
	 },
	 "properties": {
	 "醫院名稱":"振興醫療財團法人振興醫院",
	 "醫院電話":"02-28264400",
	 "地址":"臺北市北投區振興街45號"
	 }
   },
   {
	 "type": "Feature",
	 "geometry": {
		"type": "Point",
		"coordinates":  [ 121.4718122,25.1278601 ]
	 },
	 "properties": {
	 "醫院名稱":"醫療財團法人辜公亮基金會和信治癌中心醫院",
	 "醫院電話":"02-28970011",
	 "地址":"臺北市北投區立德路125號"
	 }
   },
   {
	 "type": "Feature",
	 "geometry": {
		"type": "Point",
		"coordinates":  [ 121.563012,25.0269556 ]
	 },
	 "properties": {
	 "醫院名稱":"臺北醫學大學附設醫院",
	 "醫院電話":"02-27372181",
	 "地址":"臺北市信義區吳興街252號"
	 }
   },
   {
	 "type": "Feature",
	 "geometry": {
		"type": "Point",
		"coordinates":  [ 121.55814,24.999901 ]
	 },
	 "properties": {
	 "醫院名稱":"臺北市立萬芳醫院－委託財團法人臺北醫學大學辦理",
	 "醫院電話":"02-29307930",
	 "地址":"臺北市文山區興隆路三段111號"
	 }
   },
   {
	 "type": "Feature",
	 "geometry": {
		"type": "Point",
		"coordinates":  [ 121.5575603,25.0499703 ]
	 },
	 "properties": {
	 "醫院名稱":"博仁綜合醫院",
	 "醫院電話":"02-25786677",
	 "地址":"臺北市松山區光復北路66-68號"
	 }
   },
   {
	 "type": "Feature",
	 "geometry": {
		"type": "Point",
		"coordinates":  [ 121.4945402,25.0277877 ]
	 },
	 "properties": {
	 "醫院名稱":"西園醫院",
	 "醫院電話":"02-23076968",
	 "地址":"臺北市萬華區西園路二段266-274號、185、187、189號"
	 }
   }
	]
}